[
  {
    "id": "arpege-paris",
    "name": "Arp√®ge",
    "stars": 3,
    "cuisine": "Contemporary",
    "price_level": 4,
    "lat": 48.8529,
    "lng": 2.3156,
    "city": "Paris",
    "country": "France",
    "phone": "+33 1 47 05 09 06",
    "website": "https://www.alain-passard.com/",
    "image_url": ""
  },
  {
    "id": "sukiyabashi-jiro",
    "name": "Sukiyabashi Jiro",
    "stars": 3,
    "cuisine": "Sushi",
    "price_level": 4,
    "lat": 35.6721,
    "lng": 139.7638,
    "city": "Tokyo",
    "country": "Japan",
    "phone": "",
    "website": "",
    "image_url": ""
  },
  {
    "id": "noma-cph",
    "name": "Noma (Legacy)",
    "stars": 3,
    "cuisine": "Nordic",
    "price_level": 4,
    "lat": 55.6815,
    "lng": 12.5993,
    "city": "Copenhagen",
    "country": "Denmark",
    "phone": "",
    "website": "https://noma.dk",
    "image_url": ""
  },
  {
    "id": "eleven-madison-park",
    "name": "Eleven Madison Park",
    "stars": 3,
    "cuisine": "Contemporary",
    "price_level": 4,
    "lat": 40.7416,
    "lng": -73.9874,
    "city": "New York",
    "country": "USA",
    "phone": "+1 212-889-0905",
    "website": "https://www.elevenmadisonpark.com",
    "image_url": ""
  },
  {
    "id": "quince-sf",
    "name": "Quince",
    "stars": 3,
    "cuisine": "Italian",
    "price_level": 4,
    "lat": 37.7984,
    "lng": -122.4035,
    "city": "San Francisco",
    "country": "USA",
    "phone": "",
    "website": "https://www.quincerestaurant.com",
    "image_url": ""
  },
  {
    "id": "core-by-clare-smyth",
    "name": "Core by Clare Smyth",
    "stars": 3,
    "cuisine": "Modern British",
    "price_level": 4,
    "lat": 51.5127,
    "lng": -0.1976,
    "city": "London",
    "country": "UK",
    "phone": "",
    "website": "https://www.corebyclaresmyth.com",
    "image_url": ""
  },
  {
    "id": "disfrutar-bcn",
    "name": "Disfrutar",
    "stars": 3,
    "cuisine": "Creative",
    "price_level": 4,
    "lat": 41.3893,
    "lng": 2.1576,
    "city": "Barcelona",
    "country": "Spain",
    "phone": "",
    "website": "https://www.disfrutarbarcelona.com",
    "image_url": ""
  },
  {
    "id": "odette-sg",
    "name": "Odette",
    "stars": 3,
    "cuisine": "French",
    "price_level": 4,
    "lat": 1.2947,
    "lng": 103.8519,
    "city": "Singapore",
    "country": "Singapore",
    "phone": "",
    "website": "https://www.odetterestaurant.com",
    "image_url": ""
  },
  {
    "id": "lebain-paris",
    "name": "Le Bain",
    "stars": 2,
    "cuisine": "French",
    "price_level": 3,
    "lat": 48.8647,
    "lng": 2.349,
    "city": "Paris",
    "country": "France",
    "phone": "",
    "website": "",
    "image_url": ""
  },
  {
    "id": "sazenka-tokyo",
    "name": "Sazenka",
    "stars": 3,
    "cuisine": "Chinese",
    "price_level": 3,
    "lat": 35.6425,
    "lng": 139.7237,
    "city": "Tokyo",
    "country": "Japan",
    "phone": "",
    "website": "https://sazenka.com",
    "image_url": ""
  }
]
